{
"version":3,
"type": "trip",
"title":"Sprint 4 Deploy 2",
"options": { "distance":"kilometers", "optimization":"0.0"},
"places": [
  { "id":"5FL4",
    "latitude":"29.800800323486328",
    "longitude":"-81.50090026855469",
    "name":"Byrd Air Field",
    "municipality":"Elkton",
    "region":"Florida",
    "country":"United States"
  },
  { "id":"AF12",
    "latitude":"33.15610122680664",
    "longitude":"68.8197021484375",
    "name":"Sarhawdza Landing Zone Airport",
    "municipality":"null",
    "region":"Paktika Province",
    "country":"Afghanistan"
  },
  { "id":"AM-0003",
    "latitude":"40.0809774791",
    "longitude":"43.8822698593",
    "name":"Hoktember Highway Strip",
    "municipality":"Hoktember",
    "region":"Armavir Province",
    "country":"Armenia"
  },
  { "id":"ANYN",
    "latitude":"-0.547458",
    "longitude":"166.919006",
    "name":"Nauru International Airport",
    "municipality":"Yaren District",
    "region":"Yaren",
    "country":"Nauru"
  },
  { "id":"AYGR",
    "latitude":"-8.80453968048",
    "longitude":"148.309005737",
    "name":"Girua Airport",
    "municipality":"Popondetta",
    "region":"Northern (Oro)",
    "country":"Papua New Guinea"
  },
  { "id":"BSV",
    "latitude":"-15.6725",
    "longitude":"47.0616666667",
    "name":"Besakoa Airport",
    "municipality":"Besakoa",
    "region":"Mahajanga",
    "country":"Madagascar"
  },
  { "id":"C23",
    "latitude":"7",
    "longitude":"134.23300170898438",
    "name":"Peleliu Airport",
    "municipality":"Babelthuap Island",
    "region":"Peleliu",
    "country":"Palau"
  },
  { "id":"CZ-0112",
    "latitude":"49.9850905",
    "longitude":"13.5288169",
    "name":"Kralovice Airstrip",
    "municipality":"null",
    "region":"(unassigned)",
    "country":"Czechia"
  },
  { "id":"DFEE",
    "latitude":"14.032999992370605",
    "longitude":"-0.032999999821186066",
    "name":"Dori Airport",
    "municipality":"Dori",
    "region":"Seno",
    "country":"Burkina Faso"
  },
  { "id":"DNMK",
    "latitude":"7.7038798332214355",
    "longitude":"8.613940238952637",
    "name":"Makurdi Airport",
    "municipality":"Makurdi",
    "region":"Benue",
    "country":"Nigeria"
  },
  { "id":"DTTG",
    "latitude":"33.87689971923828",
    "longitude":"10.103300094604492",
    "name":"Gabès Matmata International Airport",
    "municipality":"Gabès",
    "region":"Gabès Governorate",
    "country":"Tunisia"
  },
  { "id":"DZ-0001",
    "latitude":"29.225107",
    "longitude":"6.4936",
    "name":"Hamra Airport",
    "municipality":"Hassi Bel Guebour",
    "region":"Ouargla Province",
    "country":"Algeria"
  },
  { "id":"EBFN",
    "latitude":"51.090301513671875",
    "longitude":"2.652780055999756",
    "name":"Koksijde Air Base",
    "municipality":"Koksijde",
    "region":"West Flanders",
    "country":"Belgium"
  },
  { "id":"EDXB",
    "latitude":"54.153331756600004",
    "longitude":"8.90166664124",
    "name":"Heide-Büsum Airport",
    "municipality":"Büsum",
    "region":"Schleswig-Holstein",
    "country":"Germany"
  },
  { "id":"EG34",
    "latitude":"52.00189971923828",
    "longitude":"-2.4741599559783936",
    "name":"Ledbury Airport",
    "municipality":"Ledbury",
    "region":"England",
    "country":"United Kingdom"
  },
  { "id":"EKKS",
    "latitude":"55.2522222",
    "longitude":"12.0627778",
    "name":"Kongsted Svæveflyveplads Glider",
    "municipality":"Faxe",
    "region":"Zealand",
    "country":"Denmark"
  },
  { "id":"ES-0017",
    "latitude":"39.329167",
    "longitude":"-6.343611",
    "name":"Aeroclub Cáceres",
    "municipality":"La Cervera",
    "region":"Extremadura",
    "country":"Spain"
  },
  { "id":"ESNR",
    "latitude":"61.189998626708984",
    "longitude":"14.712599754333496",
    "name":"Orsa Airport",
    "municipality":"null",
    "region":"Dalarnas län",
    "country":"Sweden"
  },
  { "id":"EVGA",
    "latitude":"56.778301",
    "longitude":"24.853901",
    "name":"Lielvarde Air Base",
    "municipality":"Lielvarde",
    "region":"Ogre District",
    "country":"Latvia"
  },
  { "id":"FCBD",
    "latitude":"-2.5329999923706055",
    "longitude":"14.75",
    "name":"Djambala Airport",
    "municipality":"Djambala",
    "region":"Plateaux Department",
    "country":"Congo (Brazzaville)"
  },
  { "id":"FDNG",
    "latitude":"-25.766666412353516",
    "longitude":"31.366666793823242",
    "name":"Piggs Peak Airport",
    "municipality":"Ngonini",
    "region":"Hhohho",
    "country":"Swaziland"
  },
  { "id":"FEGD",
    "latitude":"6.300000190734863",
    "longitude":"19.08300018310547",
    "name":"Dekoa Airport",
    "municipality":"Dekoa",
    "region":"Kémo",
    "country":"Central African Republic"
  },
  { "id":"FGMY",
    "latitude":"1.685334",
    "longitude":"11.024394",
    "name":"President Obiang Nguema International Airport",
    "municipality":"Mengomeyén",
    "region":"Wele-Nzas",
    "country":"Equatorial Guinea"
  },
  { "id":"FLMW",
    "latitude":"-11.654000282287598",
    "longitude":"24.430999755859375",
    "name":"Mwinilunga Airport",
    "municipality":"Mwinilunga",
    "region":"North-Western Province",
    "country":"Zambia"
  },
  { "id":"FMCN",
    "latitude":"-11.710800170899999",
    "longitude":"43.2439002991",
    "name":"Iconi Airport",
    "municipality":"Moroni",
    "region":"Grande Comore Ngazidja",
    "country":"Comoros"
  },
  { "id":"FMEP",
    "latitude":"-21.320899963378906",
    "longitude":"55.42499923706055",
    "name":"Pierrefonds Airport",
    "municipality":"St Pierre",
    "region":"(unassigned)",
    "country":"Réunion"
  },
  { "id":"FOOK",
    "latitude":"0.5792109966278076",
    "longitude":"12.890899658203125",
    "name":"Makokou Airport",
    "municipality":"Makokou",
    "region":"Ogooué-Ivindo Province",
    "country":"Gabon"
  },
  { "id":"FOY",
    "latitude":"8.3513",
    "longitude":"-10.2269",
    "name":"Foya Airport",
    "municipality":"Foya",
    "region":"Lofa County",
    "country":"Liberia"
  },
  { "id":"FPST",
    "latitude":"0.3781749904155731",
    "longitude":"6.7121500968933105",
    "name":"São Tomé International Airport",
    "municipality":"São Tomé",
    "region":"São Tomé",
    "country":"São Tomé and Principe"
  },
  { "id":"FSSC",
    "latitude":"-7.13457",
    "longitude":"56.278198",
    "name":"Coetivy Airport",
    "municipality":"Coetivy Island",
    "region":"La Digue",
    "country":"Seychelles"
  },
  { "id":"FXLR",
    "latitude":"-28.855600357055664",
    "longitude":"28.052799224853516",
    "name":"Leribe Airport",
    "municipality":"Leribe",
    "region":"Leribe",
    "country":"Lesotho"
  },
  { "id":"FZAA",
    "latitude":"-4.38574981689",
    "longitude":"15.4446001053",
    "name":"Ndjili International Airport",
    "municipality":"Kinshasa",
    "region":"Kinshasa Province",
    "country":"Congo (Kinshasa)"
  },
  { "id":"GBYD",
    "latitude":"13.338000297546387",
    "longitude":"-16.65220069885254",
    "name":"Banjul International Airport",
    "municipality":"Banjul",
    "region":"Western",
    "country":"Gambia"
  },
  { "id":"GMMZ",
    "latitude":"30.9391002655",
    "longitude":"-6.909430027010001",
    "name":"Ouarzazate Airport",
    "municipality":"Ouarzazate",
    "region":"Ouarzazate Province",
    "country":"Morocco"
  },
  { "id":"GQNS",
    "latitude":"15.179699897766113",
    "longitude":"-12.207300186157227",
    "name":"Sélibaby Airport",
    "municipality":"Sélibaby",
    "region":"Guidimaka Region",
    "country":"Mauritania"
  },
  { "id":"GT-0010",
    "latitude":"15.477297602399998",
    "longitude":"-91.03370189670001",
    "name":"Chajul",
    "municipality":"null",
    "region":"Quiche",
    "country":"Guatemala"
  },
  { "id":"HAGN",
    "latitude":"12.51990032196045",
    "longitude":"37.433998107910156",
    "name":"Gonder Airport",
    "municipality":"Gondar",
    "region":"Amara",
    "country":"Ethiopia"
  },
  { "id":"HDHE",
    "latitude":"12.4449",
    "longitude":"43.292575",
    "name":"Herkale Airport",
    "municipality":"Herkale",
    "region":"Obock",
    "country":"Djibouti"
  },
  { "id":"HE35",
    "latitude":"30.57270050048828",
    "longitude":"32.095298767089844",
    "name":"Abu Suwayr Air Base",
    "municipality":"Abu Suwayr",
    "region":"Ismailia Governorate",
    "country":"Egypt"
  },
  { "id":"HLGT",
    "latitude":"25.1455993652",
    "longitude":"10.142600059500001",
    "name":"Ghat Airport",
    "municipality":"Ghat",
    "region":"Ghat District",
    "country":"Libya"
  },
  { "id":"IQ-0027",
    "latitude":"34.920650482177734",
    "longitude":"43.38473129272461",
    "name":"K2 Air Base",
    "municipality":"null",
    "region":"Salah ad Din Governorate",
    "country":"Iraq"
  },
  { "id":"IT-0390",
    "latitude":"42.224206",
    "longitude":"11.7948",
    "name":"Campo di Volo Delta Top Pegaso",
    "municipality":"Tarquinia (VT)",
    "region":"Lazio",
    "country":"Italy"
  },
  { "id":"KG-0014",
    "latitude":"41.484500885",
    "longitude":"71.7337036133",
    "name":"Kerben Airport",
    "municipality":"Kerben",
    "region":"Jalal-Abad Region",
    "country":"Kyrgyzstan"
  },
  { "id":"KP-0061",
    "latitude":"38.661598",
    "longitude":"127.649002",
    "name":"Hoeyang Southeast Airport",
    "municipality":"Hoeyang",
    "region":"Kangwon Province",
    "country":"North Korea"
  },
  { "id":"KZ-0082",
    "latitude":"46.190767",
    "longitude":"80.830922",
    "name":"Usharal Airport",
    "municipality":"Usharal",
    "region":"Almaty Region",
    "country":"Kazakhstan"
  },
  { "id":"LAGJ",
    "latitude":"41.895199",
    "longitude":"19.5987",
    "name":"Gjadër Air Base",
    "municipality":"Gjadër",
    "region":"Lezhë County",
    "country":"Albania"
  },
  { "id":"LBRD",
    "latitude":"43.499168",
    "longitude":"23.304722",
    "name":"Erden Airport",
    "municipality":"Erden",
    "region":"Montana Province",
    "country":"Bulgaria"
  },
  { "id":"LHFC",
    "latitude":"47.44462",
    "longitude":"18.55632",
    "name":"Bodmér",
    "municipality":"null",
    "region":"Fejér",
    "country":"Hungary"
  },
  { "id":"LMML",
    "latitude":"35.857498",
    "longitude":"14.4775",
    "name":"Malta International Airport",
    "municipality":"Luqa",
    "region":"Luqa",
    "country":"Malta"
  },
  { "id":"LROD",
    "latitude":"47.025299072265625",
    "longitude":"21.90250015258789",
    "name":"Oradea International Airport",
    "municipality":"Oradea",
    "region":"Bihor",
    "country":"Romania"
  },
  { "id":"LSZI",
    "latitude":"47.5088996887207",
    "longitude":"7.949999809265137",
    "name":"Fricktal-Schupfart Airport",
    "municipality":"null",
    "region":"Canton of Aargau",
    "country":"Switzerland"
  },
  { "id":"LW72",
    "latitude":"41.5172",
    "longitude":"22.087099",
    "name":"Negotino Airport",
    "municipality":"Negotino",
    "region":"Vardar Statistical Region",
    "country":"Macedonia"
  },
  { "id":"MDCZ",
    "latitude":"18.907499313354",
    "longitude":"-70.721900939941",
    "name":"Constanza - Expedición 14 de Junio National Airport",
    "municipality":"Costanza",
    "region":"La Vega Province",
    "country":"Dominican Republic"
  },
  { "id":"MNCE",
    "latitude":"11.427542",
    "longitude":"-86.033361",
    "name":"Costa Esmeralda Airport",
    "municipality":"Tola",
    "region":"Rivas",
    "country":"Nicaragua"
  },
  { "id":"MSSA",
    "latitude":"14.0672222222",
    "longitude":"-89.6322222222",
    "name":"El Palmer Airport",
    "municipality":"Santa Ana",
    "region":"Santa Ana",
    "country":"El Salvador"
  },
  { "id":"MUCL",
    "latitude":"21.6165008545",
    "longitude":"-81.5459976196",
    "name":"Vilo Acuña International Airport",
    "municipality":"Cayo Largo del Sur",
    "region":"Isla de la Juventud",
    "country":"Cuba"
  },
  { "id":"MX-0374",
    "latitude":"25.505621",
    "longitude":"-100.082557",
    "name":"Sergio Perez de Leon Airport",
    "municipality":"Cadereyta",
    "region":"Nuevo Leon",
    "country":"Mexico"
  },
  { "id":"NCRG",
    "latitude":"-21.2026996613",
    "longitude":"-159.805999756",
    "name":"Rarotonga International Airport",
    "municipality":"Avarua",
    "region":"(unassigned)",
    "country":"Cook Islands"
  },
  { "id":"NFOL",
    "latitude":"-20.6589",
    "longitude":"-178.7411",
    "name":"Ono-i-Lau Airport",
    "municipality":"Ono-i-Lau",
    "region":"Eastern",
    "country":"Fiji"
  },
  { "id":"NFTO",
    "latitude":"-15.5707998276",
    "longitude":"-175.632995605",
    "name":"Mata'aho Airport",
    "municipality":"Angaha, Niuafo'ou Island",
    "region":"Niuas",
    "country":"Tonga"
  },
  { "id":"NGFU",
    "latitude":"-8.525",
    "longitude":"179.195999",
    "name":"Funafuti International Airport",
    "municipality":"Funafuti",
    "region":"Funafuti",
    "country":"Tuvalu"
  },
  { "id":"NGTE",
    "latitude":"-1.2244700193405151",
    "longitude":"174.7760009765625",
    "name":"Tabiteuea North Airport",
    "municipality":"null",
    "region":"Gilbert Islands",
    "country":"Kiribati"
  },
  { "id":"NIUE",
    "latitude":"-19.079030990600586",
    "longitude":"-169.92559814453125",
    "name":"Niue International Airport",
    "municipality":"Alofi",
    "region":"(unassigned)",
    "country":"Niue"
  },
  { "id":"NSAS",
    "latitude":"-14.1844",
    "longitude":"-169.669998",
    "name":"Ofu Village Airport",
    "municipality":"Ofu Village",
    "region":"(unassigned)",
    "country":"American Samoa"
  },
  { "id":"NTTH",
    "latitude":"-16.68720054626465",
    "longitude":"-151.02200317382812",
    "name":"Huahine-Fare Airport",
    "municipality":"Fare",
    "region":"(unassigned)",
    "country":"French Polynesia"
  },
  { "id":"NVSH",
    "latitude":"-15.4708003998",
    "longitude":"168.151992798",
    "name":"Sara Airport",
    "municipality":"Pentecost Island",
    "region":"Penama",
    "country":"Vanuatu"
  },
  { "id":"OBBI",
    "latitude":"26.27079963684082",
    "longitude":"50.63359832763672",
    "name":"Bahrain International Airport",
    "municipality":"Manama",
    "region":"Muharraq Governorate",
    "country":"Bahrain"
  },
  { "id":"OE43",
    "latitude":"21.32360076904297",
    "longitude":"41.198299407958984",
    "name":"Arfa Airport",
    "municipality":"null",
    "region":"Makkah Region",
    "country":"Saudi Arabia"
  },
  { "id":"OI19",
    "latitude":"35.52989959716797",
    "longitude":"51.50579833984375",
    "name":"Firuzabad Airport",
    "municipality":"null",
    "region":"Tehran Province",
    "country":"Iran"
  },
  { "id":"OJ38",
    "latitude":"32.025299072265625",
    "longitude":"36.144798278808594",
    "name":"Zarqa Airport",
    "municipality":"Zarqa",
    "region":"Az Zarga Governorate",
    "country":"Jordan"
  },
  { "id":"OKDI",
    "latitude":"29.697599411010742",
    "longitude":"47.43600082397461",
    "name":"Udairi Army Air Field",
    "municipality":"Camp Buehring",
    "region":"Al Jahra Governorate",
    "country":"Kuwait"
  },
  { "id":"OPSR",
    "latitude":"32.04859924316406",
    "longitude":"72.66500091552734",
    "name":"Mushaf Air Base",
    "municipality":"Sargodha",
    "region":"Punjab",
    "country":"Pakistan"
  },
  { "id":"OTBK",
    "latitude":"25.629600524902344",
    "longitude":"51.50669860839844",
    "name":"Al Khawr Airport",
    "municipality":"Al Khawr",
    "region":"Al Khawr Municipality",
    "country":"Qatar"
  },
  { "id":"PGRO",
    "latitude":"14.174300193786621",
    "longitude":"145.2429962158203",
    "name":"Rota International Airport",
    "municipality":"Rota Island",
    "region":"(unassigned)",
    "country":"Northern Mariana Islands"
  },
  { "id":"PS-0001",
    "latitude":"32.0983631608",
    "longitude":"35.3453564644",
    "name":"Jurish Highway Strip H",
    "municipality":"Jurish",
    "region":"Nablus Governorate",
    "country":"Palestinian Territory"
  },
  { "id":"PT-0036",
    "latitude":"39.6820593",
    "longitude":"-8.253189",
    "name":"Aeródromo Municipal de Valadas",
    "municipality":"Valadas",
    "region":"(unassigned)",
    "country":"Portugal"
  },
  { "id":"PY-BFA",
    "latitude":"-20.2245998383",
    "longitude":"-58.1791992188",
    "name":"Bahía Negra Airport",
    "municipality":"Bahía Negra",
    "region":"Alto Paraguay Department",
    "country":"Paraguay"
  },
  { "id":"RCMT",
    "latitude":"26.224199295043945",
    "longitude":"120.00299835205078",
    "name":"Matsu Beigan Airport",
    "municipality":"Beigan Island",
    "region":"Lienchiang County",
    "country":"Taiwan"
  },
  { "id":"RK49",
    "latitude":"36.75600051879883",
    "longitude":"126.33000183105469",
    "name":"G 530 Airport",
    "municipality":"null",
    "region":"Chungcheongnamdo",
    "country":"South Korea"
  },
  { "id":"ROAH",
    "latitude":"26.1958007812",
    "longitude":"127.646003723",
    "name":"Naha Airport",
    "municipality":"Naha",
    "region":"Okinawa Prefecture",
    "country":"Japan"
  },
  { "id":"RPLZ",
    "latitude":"12.998588562011719",
    "longitude":"124.01808166503906",
    "name":"Sorsogon",
    "municipality":"null",
    "region":"Sorsogon Province",
    "country":"Philippines"
  },
  { "id":"RS-0009",
    "latitude":"44.7623",
    "longitude":"20.4714",
    "name":"Banji?ki Vis Heliport",
    "municipality":"null",
    "region":"Beograd (city)",
    "country":"Serbia"
  },
  { "id":"SCPZ",
    "latitude":"-80.31829833984375",
    "longitude":"-81.30809783935547",
    "name":"Patriot Hills Airport",
    "municipality":"Antartica",
    "region":"(unassigned)",
    "country":"Antarctica"
  },
  { "id":"SEIB",
    "latitude":"0.33841899037361145",
    "longitude":"-78.13639831542969",
    "name":"Atahualpa Airport",
    "municipality":"Ibarra",
    "region":"Imbabura Province",
    "country":"Ecuador"
  },
  { "id":"SIBY",
    "latitude":"-7.87824010848999",
    "longitude":"-37.13999938964844",
    "name":"Monteiro Airport",
    "municipality":"Monteiro",
    "region":"Paraíba",
    "country":"Brazil"
  },
  { "id":"SLBN",
    "latitude":"-13.633333206176758",
    "longitude":"-65.28333282470703",
    "name":"Bella Unión Airport",
    "municipality":"Mamoré",
    "region":"El Beni Department",
    "country":"Bolivia"
  },
  { "id":"SMZO",
    "latitude":"5.811079978942871",
    "longitude":"-55.19070053100586",
    "name":"Zorg en Hoop Airport",
    "municipality":"Paramaribo",
    "region":"Paramaribo",
    "country":"Suriname"
  },
  { "id":"SUAG",
    "latitude":"-30.400699615478516",
    "longitude":"-56.50790023803711",
    "name":"Artigas International Airport",
    "municipality":"Artigas",
    "region":"Artigas Department",
    "country":"Uruguay"
  },
  { "id":"SYPR",
    "latitude":"5.815450191497803",
    "longitude":"-61.05540084838867",
    "name":"Paruma Airport",
    "municipality":"Paruma",
    "region":"Cuyuni-Mazaruni",
    "country":"Guyana"
  },
  { "id":"TBPB",
    "latitude":"13.0746002197",
    "longitude":"-59.4925003052",
    "name":"Sir Grantley Adams International Airport",
    "municipality":"Bridgetown",
    "region":"Christ Church",
    "country":"Barbados"
  },
  { "id":"TDCF",
    "latitude":"15.336700439453125",
    "longitude":"-61.3922004699707",
    "name":"Canefield Airport",
    "municipality":"Canefield",
    "region":"Saint Paul Parish",
    "country":"Dominica"
  },
  { "id":"TFFF",
    "latitude":"14.590999603271484",
    "longitude":"-61.00320053100586",
    "name":"Martinique Aimé Césaire International Airport",
    "municipality":"Fort-de-France",
    "region":"(unassigned)",
    "country":"Martinique"
  },
  { "id":"TFFJ",
    "latitude":"17.904399871826172",
    "longitude":"-62.84360122680664",
    "name":"Gustaf III Airport",
    "municipality":"Gustavia",
    "region":"(unassigned)",
    "country":"Saint Barthélemy"
  },
  { "id":"TGPZ",
    "latitude":"12.476099967956543",
    "longitude":"-61.472801208496094",
    "name":"Lauriston Airport",
    "municipality":"Carriacou Island",
    "region":"Saint Patrick",
    "country":"Grenada"
  },
  { "id":"TISX",
    "latitude":"17.701900482177734",
    "longitude":"-64.79859924316406",
    "name":"Henry E Rohlsen Airport",
    "municipality":"Christiansted",
    "region":"(unassigned)",
    "country":"U.S. Virgin Islands"
  },
  { "id":"TJIG",
    "latitude":"18.45680046081543",
    "longitude":"-66.09809875488281",
    "name":"Fernando Luis Ribas Dominicci Airport",
    "municipality":"San Juan",
    "region":"(unassigned)",
    "country":"Puerto Rico"
  },
  { "id":"TKPK",
    "latitude":"17.311199188232422",
    "longitude":"-62.71870040893555",
    "name":"Robert L. Bradshaw International Airport",
    "municipality":"Basseterre",
    "region":"(unassigned)",
    "country":"Saint Kitts and Nevis"
  },
  { "id":"TLPL",
    "latitude":"13.7332",
    "longitude":"-60.952599",
    "name":"Hewanorra International Airport",
    "municipality":"Vieux Fort",
    "region":"Vieux Fort",
    "country":"Saint Lucia"
  },
  { "id":"TNCA",
    "latitude":"12.501399993896484",
    "longitude":"-70.01519775390625",
    "name":"Queen Beatrix International Airport",
    "municipality":"Oranjestad",
    "region":"(unassigned)",
    "country":"Aruba"
  },
  { "id":"TNCE",
    "latitude":"17.49650001525879",
    "longitude":"-62.979400634765625",
    "name":"F. D. Roosevelt Airport",
    "municipality":"Sint Eustatius",
    "region":"(unassigned)",
    "country":"Caribbean Netherlands"
  },
  { "id":"TNCM",
    "latitude":"18.041000366200002",
    "longitude":"-63.1088981628",
    "name":"Princess Juliana International Airport",
    "municipality":"Saint Martin",
    "region":"(unassigned)",
    "country":"Sint Maarten"
  },
  { "id":"TUPW",
    "latitude":"18.446399688720703",
    "longitude":"-64.42749786376953",
    "name":"Virgin Gorda Airport",
    "municipality":"Spanish Town",
    "region":"(unassigned)",
    "country":"British Virgin Islands"
  },
  { "id":"TZ-0047",
    "latitude":"-11.206844",
    "longitude":"38.162974",
    "name":"Mtemaupinde Airport",
    "municipality":"Mtemaupinde",
    "region":"Mtwara Region",
    "country":"Tanzania"
  },
  { "id":"UTDT",
    "latitude":"37.86640167236328",
    "longitude":"68.86470031738281",
    "name":"Qurghonteppa International Airport",
    "municipality":"Kurgan-Tyube",
    "region":"Khatlon Region",
    "country":"Tajikistan"
  },
  { "id":"UZ-0123",
    "latitude":"40.70280075073242",
    "longitude":"71.90119934082031",
    "name":"Shakhrikhan West Airport",
    "municipality":"Shakhrikhan",
    "region":"Andijon",
    "country":"Uzbekistan"
  },
  { "id":"VCCT",
    "latitude":"8.5385103225708",
    "longitude":"81.18190002441406",
    "name":"China Bay Airport",
    "municipality":"Trincomalee",
    "region":"Eastern Province",
    "country":"Sri Lanka"
  },
  { "id":"VMMC",
    "latitude":"22.149599075317383",
    "longitude":"113.59200286865234",
    "name":"Macau International Airport",
    "municipality":"Taipa",
    "region":"(unassigned)",
    "country":"Macau"
  },
  { "id":"VOTR",
    "latitude":"10.765399932861328",
    "longitude":"78.70970153808594",
    "name":"Tiruchirapally Civil Airport Airport",
    "municipality":"Tiruchirappally",
    "region":"Tamil Nadu",
    "country":"India"
  },
  { "id":"VTBI",
    "latitude":"14.077799797058105",
    "longitude":"101.37999725341797",
    "name":"Khao E To Airport",
    "municipality":"null",
    "region":"Prachin Buri Province",
    "country":"Thailand"
  },
  { "id":"VVCT",
    "latitude":"10.085100174",
    "longitude":"105.711997986",
    "name":"Can Tho International Airport",
    "municipality":"Can Tho",
    "region":"Lao Cai Province",
    "country":"Vietnam"
  },
  { "id":"WPOC",
    "latitude":"-9.198060035705566",
    "longitude":"124.34300231933594",
    "name":"Oecussi Airport",
    "municipality":"Oecussi-Ambeno",
    "region":"Oecussi",
    "country":"Timor-Leste"
  },
  { "id":"WSAT",
    "latitude":"1.38725996017",
    "longitude":"103.708999634",
    "name":"Tengah Air Base",
    "municipality":"null",
    "region":"North West",
    "country":"Singapore"
  },
  { "id":"XK-0001",
    "latitude":"42.346522",
    "longitude":"21.19432",
    "name":"KFOR Base Airfield",
    "municipality":"Camp Bondsteel",
    "region":"Ferizaj District",
    "country":"Kosovo"
  },
  { "id":"YPCC",
    "latitude":"-12.1883001328",
    "longitude":"96.8339004517",
    "name":"Cocos (Keeling) Islands Airport",
    "municipality":"Cocos (Keeling) Islands",
    "region":"(unassigned)",
    "country":"Cocos (Keeling) Islands"
  },
  { "id":"YSNF",
    "latitude":"-29.04159927368164",
    "longitude":"167.93899536132812",
    "name":"Norfolk Island International Airport",
    "municipality":"Burnt Pine",
    "region":"(unassigned)",
    "country":"Norfolk Island"
  }
]
}
