{
  "type":"trip",
  "version":3,
  "title":"CS 314 World Tour",
  "options": { "distance":"kilometers" },
  "places": [
    { "id":"KFNL", "name":"Fort Collins Loveland Municipal Airport", "municipality":"Fort Collins/Loveland", "region":"Colorado", "country":"United States", "continent":"North America", "latitude":"40.4518013", "longitude":"-105.011001587", "eid":"davematt" }
  ,{ "id":"SCPZ", "name":"Patriot Hills Airport", "municipality":"Antartica", "region":"", "country":"Antarctica", "continent":"Antarctica", "latitude":"-80.31829833984375", "longitude":"-81.30809783935547", "eid":"davematt" }
  ,{ "id":"SGAS", "name":"Silvio Pettirossi International Airport", "municipality":"Asunción", "region":"Central Department", "country":"Paraguay", "continent":"South America", "latitude":"-25.239999771118164", "longitude":"-57.52000045776367", "eid":"jsalzano" }
  ,{ "id":"GCLP", "name":"Gran Canaria Airport", "municipality":"Gran Canaria Island", "region":"Canary Islands", "country":"Spain", "continent":"Europe", "latitude":"27.931900024414062", "longitude":"-15.38659954071045", "eid":"mlnash2" }
  ,{ "id":"NZDN", "name":"Dunedin Airport", "municipality":"Dunedin", "region":"Otago", "country":"New Zealand", "continent":"Oceania", "latitude":"-45.9281005859375", "longitude":"170.197998046875", "eid":"jpode" }
  ,{ "id":"WSSS", "name":"Singapore Changi Airport", "municipality":"Changi", "region":"Singapore", "country":"Singapore", "continent":"Asia", "latitude":"1.3644", "longitude":"103.9915", "eid":"ahinter" }
  ,{ "id":"YPLE", "name":"Plenty Airport", "municipality":"Melbourne", "region":"Victoria", "country":"Australia", "continent":"Oceania", "latitude":"-37.723300933800004", "longitude":"145.113006592", "eid":"jjserva" }
  ,{ "id":"BIKF", "name":"Keflavik International Airport", "municipality":"Reykjavík", "region":"Southern Peninsula", "country":"Iceland", "continent":"Europe", "latitude":"63.985000610352", "longitude":"-22.605600357056", "eid":"bwedward" }
  ,{ "id":"LLBG", "name":"Ben Gurion International Airport", "municipality":"Tel Aviv", "region":"Central District", "country":"Israel", "continent":"Asia", "latitude":"32.01139831542969", "longitude":"34.88669967651367", "eid":"darik" }
  ,{ "id":"EDLX", "name":"Wesel-Römerwardt Airport", "municipality":"Wesel", "region":"North Rhine-Westphalia", "country":"Germany", "continent":"Europe", "latitude":"51.662776947021484", "longitude":"6.595832824707031", "eid":"geektron" }
  ,{ "id":"UESO", "name":"Chokurdakh Airport", "municipality":"Chokurdah", "region":"Sakha (Yakutia) Republic", "country":"Russia", "continent":"Asia", "latitude":"70.62310028076172", "longitude":"147.90199279785156", "eid":"sgthun" }
  ,{ "id":"RJAA", "name":"Narita International Airport", "municipality":"Tokyo", "region":"Chiba Prefecture", "country":"Japan", "continent":"Asia", "latitude":"35.7647018433", "longitude":"140.386001587", "eid":"jbcarter" }
  ,{ "id":"LGKV", "name":"Alexander the Great International Airport", "municipality":"Kavala", "region":"Kavala Prefecture", "country":"Greece", "continent":"Europe", "latitude":"40.913299560546875", "longitude":"24.619199752807617", "eid":"jsearl" }
  ,{ "id":"TZ-0098", "name":"Mchukwi Rufiji Airport", "municipality":"Rufiji", "region":"Pwani Coast", "country":"Tanzania", "continent":"Africa", "latitude":"-7.772857", "longitude":"39.019695", "eid":"isaach" }
  ,{ "id":"SPIM", "name":"Jorge Chávez International Airport", "municipality":"Lima", "region":"Lima Region", "country":"Perú", "continent":"South America", "latitude":"-12.0219", "longitude":"-77.114304", "eid":"edc" }
  ,{ "id":"AYSJ", "name":"Simbai Airport", "municipality":"Simbai", "region":"Madang", "country":"Papua New Guinea", "continent":"Oceania", "latitude":"-5.278611111110001", "longitude":"144.544722222", "eid":"camnagel" }
  ,{ "id":"KR-0006", "name":"C 503 Heliport", "municipality":"Camp Ames", "region":"Daejeon Gwang'yeogsi", "country":"South Korea", "continent":"Asia", "latitude":"36.4305555556", "longitude":"127.449722222", "eid":"jjpk" }
  ,{ "id":"DXAK", "name":"Akpaka Airport", "municipality":"Atakpamé", "region":"Plateaux Region", "country":"Togo", "continent":"Africa", "latitude":"7.583000183105469", "longitude":"1.1169999837875366", "eid":"ehuston" }
  ,{ "id":"SLCT", "name":"Choreti, Bolivia, South American Airport", "municipality":"Mamore", "region":"El Beni Department", "country":"Bolivia", "continent":"South America", "latitude":"-13.51449966430664", "longitude":"-64.96520233154297", "eid":"jordantp" }
  ,{ "id":"NVSA", "name":"Mota Lava Airport", "municipality":"Ablow", "region":"Torba", "country":"Vanuatu", "continent":"Oceania", "latitude":"-13.6660003662", "longitude":"167.712005615", "eid":"amroot" }
  ,{ "id":"LHBP", "name":"Budapest Ferenc Liszt International Airport", "municipality":"Budapest", "region":"Pest", "country":"Hungary", "continent":"Europe", "latitude":"47.436901092499994", "longitude":"19.255599975599996", "eid":"msmith91" }
  ,{ "id":"VEBD", "name":"Bagdogra Airport", "municipality":"Darjeeling District", "region":"Siliguri", "country":"India", "continent":"Asia", "latitude":"26.898994", "longitude":"67.205637", "eid":"dluckner" }
  ,{ "id":"GB-0331", "name":"Stoke Ferry Airfield", "municipality":"Boughton", "region":"England", "country":"United Kingdom", "continent":"Europe", "latitude":"52.584145", "longitude":"0.515755", "eid":"milewood" }
  ,{ "id":"KP-0026", "name":"Kim Jong-un Runway", "municipality":"Pyongyang", "region":"Pyongyang (capital city)", "country":"North Korea", "continent":"Asia", "latitude":"39.049593", "longitude":"125.806156", "eid":"kmy" }
  ,{ "id":"LSXW", "name":"Würenlingen Heliport", "municipality":"Würenlingen", "region":"Canton of Aargau", "country":"Switzerland", "continent":"Europe", "latitude":"47.535614013671875", "longitude":"8.246105194091797", "eid":"stock" }
  ,{ "id":"LFPO", "name":"Paris-Orly Airport", "municipality":"Paris", "region":"Île-de-France", "country":"France", "continent":"Europe", "latitude":"48.7233333", "longitude":"2.3794444", "eid":"davidsim" }
  ,{"id":"AHY", "name":"Ambatolhy Airport", "municipality":"Ambatolahy", "region":"Toliara", "country":"Madagascar", "continent":"Africa", "latitude":"-20.015833333299998", "longitude":"45.535", "eid":"zwomeldo"}
  ,{ "id":"GBYD", "name":"Banjul International Airport", "municipality":"Banjul", "region":"Western", "country":"Gambia", "continent":"Africa", "latitude":"13.338000297546387", "longitude":"-16.65220069885254", "eid":"araelee" }
  ,{"id": "MX-0048","name": "Aerofumigaciones Nayarit Airstrip","municipality": "Mexicali","region": "Baja California","country": "Mexico","continent": "North America","latitude": "32.3143","longitude": "-115.274","eid": "kablack"}
  ,{ "id":"FKKG", "name":"Bali Airport", "municipality":"Bali", "region":"Cameroon North-West", "country":"Cameroon", "continent":"Africa", "latitude":"5.89527777778", "longitude":"10.0338888889", "eid":"shaders" }
  ,{"id": "SHHR","name": "Carabineros de Chile Heliport","municipality": "Punta Arenas","region": "Magallanes","country": "Chile","continent": "South America","latitude": "-53.156","longitude": "-70.922","eid": "ikegentz"}
  ,{ "id":"BZ-ORZ", "name":"Orange Walk Airport", "municipality":"Orange Walk", "region":"Orange Walk District", "country":"Belize", "continent":"North America", "latitude":"18.0467662811", "longitude":"-88.58386993410001", "eid":"firefox" }
  ,{"id": "ZW-0003","name": "Tilbury Airport","municipality": "Tilbury","region": "Manicaland","country": "Zimbabwe","continent": "Africa","latitude": "-19.906934","longitude": "32.969636","eid": "morans"}
  ,{"id": "ZA-0122","name": "Au Beep Flats Airport","municipality": "Sendelingsdrif","region": "Northern Cape","country": "South Africa","continent": "Africa","latitude": "-28.1081","longitude": "16.8936","eid": "jrindnls"}
  ,{"id": "LTFJ","name": "Sabiha Gökçen International Airport","municipality": "Istanbul","region": "Istanbul Province ","country": "Turkey","continent": "AS","latitude": "40.8986","longitude": "29.3092","eid": "alper"}
  ,{"id": "GMMN","name": "Mohammed V International Airport","municipality": "Casablanca","region": "Casablanca Province","country": "Morocco","continent": "Africa","latitude": "33.36750030517578","longitude": "-7.589970111846924","eid": "evanjs"}
  ,{"id": "OMAA","name": "Abu Dhabi International Airport", "municipality": "Abu Dhabi","region": "Abu Dhabi Emirate","country": "United Arab Emirates","continent": "Asia","latitude": "24.452066","longitude": "54.377368","eid": "mcclured"}
  ,{ "id":"ZUUU", "name":"Chengdu Shuangliu International Airport", "municipality":"Chengdu", "region":"Sichuan Province", "country":"China", "continent":"Asia", "latitude":"30.578500747680664", "longitude":"103.9469985961914", "eid":"adair" }
  ,{ "id":"NFTE", "name":"Kaufana Airport", "municipality":"Eua Island", "region":"Eua", "country":"Tonga", "continent":"Oceania", "latitude":"-21.378299713100002", "longitude":"-174.957992554", "eid":"connorbc" }
  ,{"id": "BR-0012", "name": "Maisa Airport", "municipality": "Mossoro", "region": "Rio Grande do Norte", "country": "Brazil", "continent": "South America", "latitude": "-5.022540092468262", "longitude": "-37.515899658203125 ", "eid": "bovairds"}
  ,{"id": "ELLX", "name": "Luxembourg-Findel International Airport", "municipality":"Luxembourg", "region": "Luxembourg", "country":"Luxembourg", "continent":"Europe", "latitude":"49.6233333", "longitude": "6.2044444", "eid": "bnewell1"}
  ,{ "id":"RCTP", "name":"Taiwan Taoyuan International Airport", "municipality":"Taipei", "region":"Taoyuan County", "country":"Taiwan", "continent":"Asia", "latitude":"25.0777", "longitude":"121.233002", "eid":"mzjin" }
  ,{"id": "AGGL", "name": "Santa Cruz/Graciosa Bay/Luova Airport", "municipality":"Santa Cruz/Graciosa Bay/Luova", "region": "Temotu", "country":"Solomon Islands", "continent":"Oceania", "latitude":"-10.72029972076416", "longitude": "165.7949981689453", "eid": "cntorres"}
  ,{ "id":"ENGM", "name":"Oslo Gardermoen Airport", "municipality":"Oslo", "region":"Oslo", "country":"Norway", "continent":"EU", "latitude":"60.193901062012", "longitude":"11.100399971008", "eid":"lwilson1" }
  ,{"id": "FBSM","name": "Sua Pan Airport", "municipality": "Sowa","region": "Central District","country": "Botswana","continent": "Africa","latitude": "-20.5534","longitude": "26.115801","eid": "jmulhern"}
  ,{ "id":"CSM6", "name":"Blue Sea Lake Seaplane Base", "municipality":"Maniwaki", "region":"Quebec", "country":"Canada", "continent":"NA", "latitude":"46.2421989440918", "longitude":"-76.04830169677734", "eid":"calvinle" }
  ,{ "id":"MGGT", "name":"La Aurora Airport", "municipality":"Guatemala City", "region":"Guatemala", "country":"Guatemala", "continent":"NA", "latitude":"14.58329963684082", "longitude":"-90.52749633789062", "eid":"diegob" }
  ,{ "id":"ESOW", "name":"Stockholm Arlanda Airport", "municipality":"Stockholm / Västerås ", "region":"Stockholm", "country":"Sweden", "continent":"EU", "latitude":"59.58940124511719", "longitude":"16.63360023498535", "eid":"tomcavey" }
  ,{ "id":"VTSP", "name":"Phuket International Airport", "municipality":"Thalang", "region":"Phuket", "country":"Thailand", "continent":"AS", "latitude":"8.113056", "longitude":"98.316667", "eid":"jdenesha" }
  ,{ "id":"VVNT", "name":"Cam Ranh Airport", "municipality":"Nha Trang", "region":"Khanh Hoa Province", "country":"Vietnam", "continent":"AS", "latitude":"11.998200416564941", "longitude":"109.21900177001953", "eid":"cutreap" }
  ,{ "id":"BGSC", "name":"Ittoqqortoormiit Heliport", "municipality":"Ittoqqortoormiit", "region":"Sermersooq", "country":"Greenland", "continent":"North America", "latitude":"70.4882288244", "longitude":"-21.971679925900002", "eid":"amalott" }
  ,{ "id":"NGFU", "name":"Funafuti International Airport", "municipality":"Funafuti", "region":"Funafuti", "country":"Tuvalu", "continent":"Oceania", "latitude":"-8.525", "longitude":"179.195999", "eid":"rrob1487" }
  ,{ "id":"HEGN", "name":"Hurghada International Airport", "municipality":"Hurghada", "region":"Red Sea Governorate", "country":"Egypt", "continent":"Africa", "latitude":"27.178300857543945", "longitude":"33.799400329589844", "eid":"tcostell" }
  ,{"id":"EFJV", "name":"Central Finland Central Hospital Heliport", "municipality":"Jyväskylä", "region":"Länsi-Suomen lääni", "country":"Finland", "continent":"Europe", "latitude":"62.230361", "longitude":"25.71154", "eid":"jgoing"}
  ,{"id":"SAZA", "name":"Azul Airport", "municipality":"Azul", "region":"Buenos Aires Province", "country":"Argentina", "continent":"South America", "latitude":"-36.8368988037", "longitude":"-59.8802986145", "eid":"psghotge"}
  ,{ "id":"KG-0031", "name":"Mikhaylovka Dmitriyevka Airport", "municipality":"Mazar-Bulak", "region":"Jalal-Abad Region", "country":"Kyrgyzstan", "continent":"Asia", "latitude":"41.111900329589844", "longitude":"73.24929809570312", "eid":"amadey"}
  ,{ "id":"CPH", "name":"Copenhagen Airport", "municipality":"Tårnby", "region":"Kastrup", "country":"Denmark", "continent":"Europe", "latitude":"55.623830838", "longitude":"12.641497434", "eid":"cloerj" }
  ,{"id":"EPWA", "name":"Warsaw Chopin Airport", "municipality":"Włochy", "region":"Warsaw", "country":"Poland", "continent":"Europe", "latitude":"52.1656990051", "longitude":"20.967100143399996", "eid":"awlong"}
  ,{"id":"UACC", "name":"Astana International Airport", "municipality":"Astana", "region":"Akmola Region", "country":"Kazakhstan", "continent":"Asia", "latitude":"51.02220153808594", "longitude":"71.46690368652344", "eid":"kolya"}
  ,{"id":"GVSV", "name":"São Pedro Airport", "municipality":"São Pedro", "region":"Barlavento Islands", "country":"Cape Verde", "continent":"Africa", "latitude":"16.833200454711914", "longitude":"-25.055299758911133", "eid":"ajbieber"}
  ,{"id":"EELM", "name":"Lennundusmuuseum", "municipality":"Tartu", "region":"U-A", "country":"Estonia", "continent":"Europe", "latitude":"58.290658", "longitude":"26.767748", "eid":"ayares97"}
  ,{"id":"DAAF", "name":"Aoulef Airport", "municipality":"Aoulef", "region":"Adrar Province", "country":"Algeria", "continent":"Africa", "latitude":"27.0624", "longitude":"1.1111", "eid":"natemort"}
  ,{"id": "VAGO", "name": "Dabolim Airport", "municipality": "Vasco da Gama", "region": "Goa", "country": "India", "continent": "Asia", "latitude": "15.3808002472", "longitude": "73.8313980103", "eid": "cinva"}
  ,{"id": "AKM", "name": "Zakuoma Airport", "municipality": "Zakuoma", "region": "Salāmāt", "country": "Chad", "continent": "Africa", "latitude": "10.8902777778", "longitude": "19.8172222222", "eid": "djchap"}
  ,{"id":"WADD", "name":"Ngurah Rai (Bali) International Airport", "municipality":"Denpasar-Bali Island", "region":"Bali", "country":"Indonesia", "continent":"Asia", "latitude":"-8.7481698989868", "longitude":"115.16699981689", "eid":"pbarstad"}
  ,{"id":"HI47", "name":"Big Eye Heliport", "municipality":"Agana Guam", "region":"(unassigned)", "country":"Guam", "continent":"Oceania", "latitude":"13.498100280761719", "longitude":"144.80499267578125", "eid":"ewanlp" }
  ,{"id":"LLBG", "name":"Ben Gurion International Airport", "municipality":"Tel Aviv", "region":"Central District", "country":"Israel", "continent":"Asia", "latitude":"32.01139831542969", "longitude":"34.88669967651367", "eid":"crgold" }
  ,{"id":"FHSH", "name":"St. Helena Airport", "municipality":"Jamestown", "region":"Saint Helena", "country":"Saint Helena", "continent":"Africa", "latitude":"-15.957725", "longitude":"-5.645943", "eid":"lburford" }
  ,{"id":"HAAB", "name":"Addis Ababa Bole International Airport", "municipality":"Addis Ababa", "region":"Addis Ababa", "country":"Ethiopia", "continent":"Africa", "latitude":"8.97789001465", "longitude":"38.799301147499996", "eid":"abee" }
  ,{"id":"GOTB", "name":"Bakel Airport", "municipality":"Bakel", "region":"Tambacounda", "country":"Bakel", "continent":"Africa", "latitude":"14.84729957580", "longitude":"-12.46829865722656", "eid":"dboston1" }
  ,{"id": "VNRB", "name": "Rajbiraj Airport", "municipality": "Rajbiraj", "region": "Sagarmatha", "country": "Nepal", "continent": "Asia", "latitude": "26.517000198364258", "longitude": "86.75", "eid": "hottar"}
  ,{"id":"FMCZ", "name": "Dzaoudzi Pamandzi International Airport", "municipality": "Dzaoudzi", "region": "(unassigned)", "country": "Mayotte", "continent": "Africa", "latitude": "-12.804699897766113", "longitude": "45.28110122680664", "eid": "larkwt"}
  ,{"id": "VE-0147", "name": "Parque Central  Heliport", "municipality": "Caracas", "region": "Distrito Federal", "country": "Venezuela", "continent": "South America", "latitude": "10.50100040435791", "longitude": "-66.90129852294922", "eid": "coldren" }
  ,{"id": "UA-0113", "name": "Lanivtsi Airstrip", "municipality": "Lanivtsi", "region": "", "country": "Ukraine", "continent": "Europe", "latitude": "49.84537", "longitude": "26.1161932", "eid": "haydenc"}
  ,{"id":"KRT", "name":"Khartoum International Airport", "municipality":"Khartoum", "region":"Khartoum", "country":"Sudan", "continent":"Africa", "latitude":"15.5928", "longitude":"32.5522", "eid":"ckl229"}
  ,{"id":"LIRP", "name":"Pisa International Airport", "municipality":"Pisa", "region":"Tuscany", "country":"Italy", "continent":"Europe", "latitude":"43.683899", "longitude":"10.3927", "eid":"kalinski"}
  ,{"id": "LZBD", "name": "Bidovce Airport", "municipality": "Kosice", "region": "Kosice", "country": "Slovakia", "continent": "Europe", "latitude": "48.7428027778", "longitude": "21.448325", "eid": "henryjb9"}
  ,{"id": "ZMUB", "name": "Chinggis Khaan International Airport", "municipality": "Ulan Bator", "region": "Ulanbaatar", "country": "Mongolia", "continent": "Asia", "latitude": "47.843101501464844", "longitude": "106.76699829101562", "eid": "mrd1992"}
  ,{"id":"AGI", "name":"El Paraíso Airport", "municipality":"Aguachica", "region":"César Department", "country":"Colombia", "continent":"South America", "latitude":"8.128611", "longitude":"-73.584722", "eid":"alexfro" }
  ,{"id":"FR-0314", "name":"Europa Island Airstrip", "municipality":"Europa Island", "region":"(unassigned)", "country":"French Southern Territories", "continent":"Africa", "latitude":"-22.3486995697", "longitude":"40.3515014648", "eid":"zgarno" }
  ,{"id":"LMMG", "name":"Xewkija Heliport", "municipality":"Gozo", "region":"Xewkija", "country":"Malta", "continent":"Europe", "latitude":"36.027199", "longitude":"14.2728", "eid":"hanlonmj" }
  ,{"id":"MUPB", "name":"Playa Baracoa Airport", "municipality":"Caimito", "region": "Artemisa Province", "country":"Cuba", "continent":"North America", "latitude":"23.0323", "longitude":"-82.5818", "eid":"kdc510"}
  ,{"id":"TNCM", "name":"Princess Juliana International Airport", "municipality":"Saint Martin", "region": "SX-U-A", "country":"Sint Maarten", "continent":"North America", "latitude":"18.041000366200002", "longitude":"-63.1088981628", "eid":"wschoon"}
  ,{ "id":"LAD", "name":"Angola International Airport (Under Construction)", "municipality":"Luanda", "region":"Luanda Province", "country":"Angola", "continent":"Africa", "latitude":"-9.0484", "longitude":"13.5026", "eid":"tgsteven" }
  ,{"id":"OS57", "name":"Abu ad Duhur Air Base", "municipality":"Abu ad Duhur", "region":"Aleppo Governorate", "country":"Syria", "continent":"Asia", "latitude": "35.732200622558594", "longitude": "37.10419845581055", "eid": "dcdennis"}
  ,{"id":"GE-0004", "name":"Akhalkalaki Airport", "municipality":"Akhalkalaki", "region":"Samtskhe-Javakheti", "country":"Georgia", "continent":"Asia", "latitude":"41.37699890136719", "longitude":"43.47999954223633", "eid":"jatanche"}
  ,{"id":"OJAI", "name":"Queen Alia International Airport", "municipality":"Amman", "region":"Zizya", "country":"Jordan", "continent":"Asia", "latitude":"31.7226009369", "longitude":"35.9931983948", "eid":"smag"}
  ]
}